stop_id,stop_code,stop_name,stop_desc,stop_lat,stop_lon,zone_id,stop_url,location_type,parent_station,stop_timezone,wheelchair_boarding,level_id,platform_code
10041961,,"25th Ave S & 14th St. S (Corner SW)","",46.843425,-96.801555,,,0,,,0,,
10191212,,"51st St. S & 28th Ave S (Corner NW)","",46.838989,-96.873794,,,0,,,0,,
10747244,,"Sanford - Amber Valley Campus","",46.84117459514344,-96.86959328893757,,,0,,,0,,
10747245,,"Scheels Arena - 51st St S Crosswalk","",46.835579,-96.874049,,,0,,,0,,
9567161,,"100 3rd St N (Park View Entrance)","",46.877659,-96.775119,,,0,,,0,,
9567162,,"10th Ave N & 11th St N (Corner NE)","",46.885579,-96.762368,,,0,,,0,,
9567163,,"10th Ave N & 13th St N (Corner NE)","",46.88558,-96.759311,,,0,,,0,,
9567164,,"10th St N & 14th Ave N (Corner SE)","",46.895054,-96.793631,,,0,,,0,,
9567165,,"10th St N & 16th Ave N (Corner SE)","",46.899327,-96.793552,,,0,,,0,,
9567166,,"10th St N & 17th/19th Ave N (Midblock East)","",46.903131,-96.793461,,,0,,,0,,
9567167,,"10th St N & 28th Ave N (Corner NW)","",46.912132,-96.793447,,,0,,,0,,
9567168,,"10th St N & 30th Ave N (Corner NW)","",46.915746,-96.793437,,,0,,,0,,
9567169,,"10th St N & 31st Ave N (T Intersection West)","",46.917534,-96.793415,,,0,,,0,,
9567170,,"10th St N & 3rd Ave N (Corner SE)","",46.879279,-96.793968,,,0,,,0,,
9567171,,"10th St N & Roosevelt Elementary (Crosswalk)","",46.88764,-96.79374,,,0,,,0,,
9567172,,"10th St S & 11th Ave S (Corner SE)","",46.863497,-96.794942,,,0,,,0,,
9567173,,"10th St S & 4th Ave S (Corner SE)","",46.870425,-96.794619,,,0,,,0,,
9567175,,"11th Ave N & Madison Park (Midblock North)","",46.888782,-96.828043,,,0,,,0,,
9567176,,"11th St N & 11th Ave N (Corner NW)","",46.886935,-96.762627,,,0,,,0,,
9567177,,"11th St N & 13 Ave N (Corner NW)","",46.889155,-96.762596,,,0,,,0,,
9567178,,"11th St N & 3rd Ave N (Corner NW)","",46.878367,-96.762754,,,0,,,0,,
9567179,,"11th St N & 3rd Ave N (Midblock East)","",46.878708,-96.795484,,,0,,,0,,
9567180,,"11th St N & 5th Ave N (Corner NW)","",46.88045,-96.762723,,,0,,,0,,
9567181,,"11th St N & 6th Ave N (Corner NW)","",46.881481,-96.762707,,,0,,,0,,
9567182,,"11th St S & 10th Ave S (Corner NW)","",46.864235,-96.762878,,,0,,,0,,
9567183,,"11th St S & 12th Ave S (Corner NW)","",46.862342,-96.7629,,,0,,,0,,
9567184,,"11th St S & 16th Ave S (T intersection West)","",46.858138,-96.762917,,,0,,,0,,
9567185,,"11th St S & 20th Ave S (Corner NW)","",46.855104,-96.762916,,,0,,,0,,
9567186,,"11th St S & 24th Ave S (Corner NW)","",46.851471,-96.762942,,,0,,,0,,
9567187,,"11th St S & 30th Ave S (Corner SE)","",46.84393824389177,-96.76307112516594,,,0,,,0,,
9567188,,"11th St S & 40th Ave S (Corner NW)","",46.83326351242658,-96.76228966749382,,,0,,,0,,
9567189,,"11th St S & 4th Ave S (Corner NW)","",46.870772,-96.762818,,,0,,,0,,
9567190,,"11th St S & 6th Ave S (Corner NW)","",46.868393,-96.762844,,,0,,,0,,
9567191,,"12th Ave N & 11th St N (Corner NE)","",46.890421,-96.795012,,,0,,,0,,
9567192,,"12th Ave N & 11th St N (Corner SW)","",46.890345,-96.795492,,,0,,,0,,
9567193,,"12th Ave N & 26th St N (Corner SW)","",46.889959,-96.821364,,,0,,,0,,
9567194,,"12th Ave N & 27th St N (Corner SW)","",46.890222,-96.822895,,,0,,,0,,
9567195,,"12th Ave N & Active Minds Academy (Midblock South)","",46.890385,-96.828046,,,0,,,0,,
9567196,,"12th Ave N & University Dr N (Corner NE)","",46.890429,-96.797967,,,0,,,0,,
9567197,,"12th Ave S & 18th St S (Corner SW)","",46.862151,-96.751886,,,0,,,0,,
9567198,,"12th Ave S & 19 1/2 St S (Corner SW)","",46.862155,-96.749286,,,0,,,0,,
9567199,,"12th Ave S & 23rd St S (Corner SW midblock in front of Youth Services)","",46.8621370636565,-96.74534447123337,,,0,,,0,,
9567200,,"12th Ave S & 25th St S (Corner SW)","",46.86213687638916,-96.74274012268448,,,0,,,0,,
9567201,,"12th Ave S & 25th St S (Corner SW)","",46.862133533689494,-96.7295829067459,,,0,,,0,,
9567202,,"12th Ave S & 34th St Cir S (Shelter 130 Corner SE)","",46.86214650186367,-96.72636350926209,,,0,,,0,,
9567203,,"12th Ave S & Appletree (T intersection South side)","",46.86211553367122,-96.73805816931151,,,0,,,0,,
9567204,,"12th Ave S & Ridgewood (Corner SE)","",46.86212884455544,-96.73424511904908,,,0,,,0,,
9567205,,"12th Avenue S & 36th Street South (Corner SW)","",46.862157,-96.722123,,,0,,,0,,
9567206,,"12th Avenue S & 38th Street S (At Cross Walk South Side)","",46.862159,-96.717283,,,0,,,0,,
9567207,,"12th St N & 25th Ave N (Corner NW)","",46.909966,-96.796211,,,0,,,0,,
9567208,,"13 1/2 Ave S & 43 1/2 St S TJ Maxx (Corner NE)","",46.86073232992975,-96.85671214847946,,,0,,,0,,
9567209,,"13th Ave E & 14th St E (Corner SW)","",46.86194,-96.878045,,,0,,,0,,
9567210,,"13th Ave E & 16th St E (Corner SW)","",46.861914,-96.875264,,,0,,,0,,
9567211,,"13th Ave E & 3rd St E (Corner SW)","",46.862275,-96.896203,,,0,,,0,,
9567212,,"13th Ave E & 6th St E (Corner SW)","",46.862177,-96.891874,,,0,,,0,,
9567213,,"13th Ave E & Prairie Pkwy (Corner SW)","",46.862074,-96.886664,,,0,,,0,,
9567214,,"13th Ave N & 14th St N (Corner NE)","",46.889381,-96.757053,,,0,,,0,,
9567215,,"13th Ave S & 11th St S (Corner NE)","",46.861642,-96.796364,,,0,,,0,,
9567216,,"13th Ave S & 11th St S (Corner SW)","",46.861507,-96.796732,,,0,,,0,,
9567217,,"13th Ave S & 14th St S (Corner NE)","",46.861644282446385,-96.80110895337296,,,0,,,0,,
9567218,,"13th Ave S & 14th St S (Corner SW)","",46.861541,-96.801629,,,0,,,0,,
9567219,,"13th Ave S & 16th St S (Corner SW)","",46.86153,-96.806233,,,0,,,0,,
9567220,,"13th Ave S & 16th St S (Crosswalk North)","",46.86162306639847,-96.80590837301636,,,0,,,0,,
9567221,,"13th Ave S & 17th St S (Corner NE)","",46.86162409511767,-96.80884559755324,,,0,,,0,,
9567222,,"13th Ave S & 17th St S (Corner SW)","",46.86152,-96.809201,,,0,,,0,,
9567223,,"13th Ave S & 21st St S (Corner NE)","",46.861599688759114,-96.81340631779098,,,0,,,0,,
9567224,,"13th Ave S & 23rd St S (Corner NE)","",46.861607,-96.816996,,,0,,,0,,
9567225,,"13th Ave S & 27th St S (Corner NE)","",46.8616197521968,-96.821833317791,,,0,,,0,,
9567226,,"13th Ave S & 27th St S (T-Intersection South)","",46.861389,-96.822054,,,0,,,0,,
9567227,,"13th Ave S & 28th St S (Corner NE)","",46.86165937762355,-96.82432518650818,,,0,,,0,,
9567228,,"13th Ave S & 28th St S (Corner SW)","",46.861419,-96.824866,,,0,,,0,,
9567229,,"13th Ave S & 33rd St S (Corner SW)","",46.861446,-96.832724,,,0,,,0,,
9567230,,"13th Ave S & 42nd St S (Corner SW)","",46.861611,-96.851248,,,0,,,0,,
9567231,,"13th Ave S & 44th St S (Corner NE)","",46.86193150169748,-96.859091682209,,,0,,,0,,
9567232,,"13th Ave S & 50th St SW (Corner SW)","",46.861839,-96.87025,,,0,,,0,,
9567233,,"13th Ave S & 7th St S (Corner NE)","",46.86162,-96.790213,,,0,,,0,,
9567234,,"13th Ave S & 9th St S (Corner NE)","",46.861647,-96.79314,,,0,,,0,,
9567235,,"13th Ave S & Fiechtner Dr (Corner NE)","",46.861726,-96.835853,,,0,,,0,,
9567236,,"13th Ave W & 1st St (Corner SW)","",46.86229,-96.900217,,,0,,,0,,
9567237,,"13th Ave W & River St (Corner SW)","",46.862441,-96.906586,,,0,,,0,,
9567239,,"14th Ave S & 32nd St S (Corner SW)","",46.859886,-96.830332,,,0,,,0,,
9567240,,"14th Ave S & 33rd St S (Corner NE)","",46.859972,-96.832345,,,0,,,0,,
9567241,,"14th St N & 10th Ave N (Corner SE)","",46.885401,-96.757211,,,0,,,0,,
9567242,,"14th St N & 2nd Ave N (Corner SE)","",46.876526,-96.757334,,,0,,,0,,
9567243,,"14th St N & 5th Ave N (Corner SE)","",46.880211,-96.757275,,,0,,,0,,
9567244,,"14th St N & 8th Ave N (Corner SE)","",46.883323,-96.757229,,,0,,,0,,
9567245,,"14th St NE & Southwood Drive (Corner NE)","",46.87993596141711,-96.68326804662703,,,0,,,0,,
9567246,,"14th St S & 12th AVe S (Corner SE)","",46.862068,-96.757503,,,0,,,0,,
9567247,,"14th St S & 14th Ave S (Corner SE)","",46.860229,-96.757478,,,0,,,0,,
9567248,,"14th St S & 18th Ave S (Corner SE)","",46.856488,-96.75746,,,0,,,0,,
9567249,,"14th St S & 20th AVe S (Corner SE)","",46.85487,-96.757429,,,0,,,0,,
9567250,,"14th St S & 22nd Ave S (Corner SE)","",46.853074,-96.757418,,,0,,,0,,
9567251,,"14th St S & 24th Ave S (Corner SE)","",46.851229,-96.757415,,,0,,,0,,
9567252,,"14th St S & 27th Ave S (Corner NE)","",46.848531,-96.757411,,,0,,,0,,
9567253,,"14th St S & 34th Ave S (Corner NW)","",46.8399275396956,-96.75760147238732,,,0,,,0,,
9567254,,"14th St S & 37th Ave S (Corner NW)","",46.83647273337986,-96.75756350429916,,,0,,,0,,
9567255,,"14th St S & 4th Ave S (Corner SE)","",46.870497,-96.75739,,,0,,,0,,
9567256,,"14th St S & 9th Ave S (Corner SE)","",46.86501,-96.757453,,,0,,,0,,
9567257,,"15th Ave & 13 1/2 St N (DMV)","",46.890548,-96.758966,,,0,,,0,,
9567258,,"15th Ave N & 11th St N (Corner NE)","",46.890523,-96.761265,,,0,,,0,,
9567259,,"15th Ave N & 12th St N (T intersection South)","",46.89053,-96.760407,,,0,,,0,,
9567260,,"15th Ave S & 34th St S (Corner NE)","",46.856987,-96.835956,,,0,,,0,,
9567261,,"15th Ave S & 42nd St S (Corner SW)","",46.858199,-96.851206,,,0,,,0,,
9567263,,"15th Ave S & 43rd St S (Corner SW)","",46.858178,-96.853914,,,0,,,0,,
9567264,,"15th Ave S & 44th St S (Corner SW)","",46.858245,-96.859509,,,0,,,0,,
9567265,,"17th Ave N & FargoDome Crosswalk (Midblock South)","",46.901089,-96.799236,,,0,,,0,,
9567266,,"17th Ave S & 10th St S (Corner NE)","",46.854386,-96.794896,,,0,,,0,,
9567267,,"17th Ave S & 10th St S (Corner SW)","",46.854287,-96.795223,,,0,,,0,,
9567268,,"17th Ave S & 14th St S (Corner NE)","",46.854377,-96.801389,,,0,,,0,,
9567269,,"17th Ave S & 15th St S (Corner NE)","",46.854376,-96.804428,,,0,,,0,,
9567270,,"17th Ave S & 16th St S (Corner NE)","",46.854365,-96.805951,,,0,,,0,,
9567271,,"17th Ave S & 17th St S (Corner NE)","",46.85434,-96.808934,,,0,,,0,,
9567272,,"17th Ave S & 17th St S (Corner SW)","",46.85428,-96.809286,,,0,,,0,,
9567273,,"17th Ave S & 23rd St S (Corner NE)","",46.854304,-96.816845,,,0,,,0,,
9567274,,"17th Ave S & 23rd St S (Corner SW)","",46.854214,-96.817159,,,0,,,0,,
9567275,,"17th Ave S & 32nd St S (Corner NE)","",46.854309,-96.830064,,,0,,,0,,
9567276,,"17th Ave S & 35th St S (Corner NE)","",46.854356,-96.837905,,,0,,,0,,
9567277,,"17th Ave S & 38th St S (Corner NE)","",46.855089,-96.841474,,,0,,,0,,
9567278,,"17th Ave S & 40th St S (Corner NE)","",46.855067,-96.846888,,,0,,,0,,
9567279,,"17th Ave S & 40th St S (Corner SW)","",46.85497,-96.847202,,,0,,,0,,
9567280,,"17th Ave S & 42nd St S (Corner SW)","",46.854937,-96.851238,,,0,,,0,,
9567281,,"17th Ave S & 43rd St S (T Intersection South)","",46.854972,-96.853805,,,0,,,0,,
9567282,,"17th Ave S & 44th St S (Corner SW)","",46.85457,-96.85909,,,0,,,0,,
9567283,,"17th Ave S & 6th St S (Corner SW)","",46.854295,-96.789294,,,0,,,0,,
9567284,,"17th Ave S & 8th St S (Corner NE)","",46.854363,-96.791799,,,0,,,0,,
9567285,,"17th Ave S & 8th St S (Corner SW)","",46.854284,-96.792195,,,0,,,0,,
9567286,,"17th Ave S & E Gateway Cir S (Corner NE)","",46.854303,-96.821594,,,0,,,0,,
9567287,,"17th Ave S & Red River Human Services Foundation","",46.854802,-96.855683,,,0,,,0,,
9567288,,"17th Ave S & South High School (Midblock North)","",46.854342,-96.811515,,,0,,,0,,
9567289,,"17th Ave S & South High School (Midblock S)","",46.854281,-96.811347,,,0,,,0,,
9567290,,"17th Ave S & W Gateway Cir (Corner SW)","",46.854232,-96.82548,,,0,,,0,,
9567291,,"17th Ave S & W Gateway Cir S (Corner NE)","",46.854325,-96.825107,,,0,,,0,,
9567292,,"17th St N & 10th Ave N (Corner SE)","",46.885236,-96.752531,,,0,,,0,,
9567293,,"17th St N & 13th Ave N (Corner SE)","",46.889143,-96.752462,,,0,,,0,,
9567294,,"17th St N & 8th Ave N (Corner SE)","",46.883314,-96.75256,,,0,,,0,,
9567295,,"18th Ave SW & 40th St SW (Midblock North)","",46.85191,-96.84736,,,0,,,0,,
9567296,,"18th Ave SW & 42nd St SW (Corner NE)","",46.851701,-96.850908,,,0,,,0,,
9567297,,"18th St S & 25th Ave S (Corner SE)","",46.84269,-96.811199,,,0,,,0,,
9567298,,"18th St S & 26th Ave S (Corner NW)","",46.841021,-96.810641,,,0,,,0,,
9567299,,"18th St S & 26th Ave S (Midblock East)","",46.840805,-96.810482,,,0,,,0,,
9567300,,"18th St S & 27th Ave S (Corner NW)","",46.838493,-96.810679,,,0,,,0,,
9567301,,"19th Ave E & 52nd St SW (Corner SW)","",46.851047,-96.871865,,,0,,,0,,
9567302,,"19th Ave E & Burlington Ln (Corner SW)","",46.851097,-96.875083,,,0,,,0,,
9567303,,"19th Ave E & Times Square Way (Corner SW)","",46.85115,-96.879327,,,0,,,0,,
9567304,,"19th Ave N & 3rd St N (Corner SW)","",46.904759,-96.783057,,,0,,,0,,
9567305,,"19th Ave N & Elm St N (Corner SW)","",46.904769,-96.776977,,,0,,,0,,
9567306,,"19th Ave N & Fargo North High (Crosswalk South)","",46.90478,-96.790396,,,0,,,0,,
9567307,,"19th Ave S & 49th St SW (Corner SW)","",46.851017,-96.869127,,,0,,,0,,
9567308,,"19th Ave S & Fastlane Car Wash (Midblock South)","",46.85097,-96.865407,,,0,,,0,,
9567309,,"1st Ave N & 10th St N (Corner NE)","",46.877439071049785,-96.79365906994056,,,0,,,0,,
9567310,,"1st Ave N & 10th St N (Corner SW)","",46.876017,-96.764942,,,0,,,0,,
9567311,,"1st Ave N & 12th St N (Corner SW)","",46.875994,-96.760185,,,0,,,0,,
9567312,,"1st Ave N & 15th St N (After First Driveway South)","",46.875982,-96.755807,,,0,,,0,,
9567313,,"1st Ave N & 17th St N (Corner SW)","",46.875985,-96.752977,,,0,,,0,,
9567314,,"1st Ave N & 3rd St N (Fargo Public Library)","",46.877017,-96.782915,,,0,,,0,,
9567315,,"1st Ave N & 8th St N (Corner NE)","",46.877380478124294,-96.79262145767213,,,0,,,0,,
9567316,,"1st Ave N & 8th St N (Corner SE)","",46.87602,-96.7673,,,0,,,0,,
9567317,,"1st Ave N & Roberts St (Corner NE)","",46.87698829208398,-96.7895660932541,,,0,,,0,,
9567318,,"1st Ave NE & 2nd St NE (Corner SW)","",46.87749785380593,-96.70056102331353,,,0,,,0,,
9567319,,"1st Ave NW & 1st St NW (Corner SW)","",46.877490893411256,-96.70447377546309,,,0,,,0,,
9567320,,"1st Ave NW & 3rd Ave NW (Corner SW)","",46.877484596968195,-96.70758524173354,,,0,,,0,,
9567321,,"1st Ave NW & 5th St NW (Corner SW)","",46.87748426091598,-96.71066162086676,,,0,,,0,,
9567322,,"1st Ave NW & Dilworth Community Center (Midblock S)","",46.87749307512645,-96.71303383813286,,,0,,,0,,
9567323,,"1st Ave SE & 2nd St SE (Corner NE)","",46.87575462292091,-96.70029757423973,,,0,,,0,,
9567324,,"1st Ave SE & 4th St SE (Corner NE)","",46.875766989681615,-96.69764132638932,,,0,,,0,,
9567325,,"1st Ave SE & 5th St SE (Corner NE)","",46.87576814049726,-96.69501244295692,,,0,,,0,,
9567326,,"1st Ave SE & Main St (Corner NE)","",46.87575006506888,-96.70299943435862,,,0,,,0,,
9567327,,"1st Ave SW & 2nd St SW (Corner NE)","",46.87574636155193,-96.7058339705696,,,0,,,0,,
9567328,,"1st Ave SW & 4th St SW (Corner NE)","",46.87573602992949,-96.70845778406144,,,0,,,0,,
9567329,,"1st St & 5th Ave W (Corner NW)","",46.871924,-96.900018,,,0,,,0,,
9567330,,"1st St & 7th Ave W (Corner NW)","",46.869731,-96.899974,,,0,,,0,,
9567331,,"202 1st Ave N (Heritage Center Entrance)","",46.877148,-96.777765,,,0,,,0,,
9567332,,"20th Ave S & 9th St S (Corner SW)","",46.854908,-96.766614,,,0,,,0,,
9567333,,"20th Ave S 11th St S (Corner SW)","",46.854917,-96.762996,,,0,,,0,,
9567335,,"20th St N & 5th Ave N (Corner NW)","",46.881695,-96.812314,,,0,,,0,,
9567336,,"20th St S & 12th Ave S (Midblock West by driveway)","",46.86339648393573,-96.747916,,,0,,,0,,
9567337,,"20th St S & 14th/16th Ave S (Midblock West)","",46.85912870310985,-96.7479092098217,,,0,,,0,,
9567338,,"20th St S & 16th/18th Ave S (Shelter 110 Midblock West)","",46.85748153246625,-96.747869,,,0,,,0,,
9567339,,"20th St S & 20th Ave S (Corner SW)","",46.85557399209127,-96.7478891018524,,,0,,,0,,
9567340,,"20th St S & 22nd Ave S (Corner SW)","",46.85316435635571,-96.74782095337297,,,0,,,0,,
9567341,,"20th St S & 30th Ave S (Midblock East Side)","",46.84316428255649,-96.74778747238732,,,0,,,0,,
9567342,,"20th St S & 8th Ave S (Corner SW)","",46.86606415411987,-96.7479146183853,,,0,,,0,,
9567343,,"20th St. S. & Belsly Blvd (Corner NW)","",46.84210459460262,-96.74776558895492,,,0,,,0,,
9567344,,"23rd Ave S & 55th/54th St S (Midblock South)","",46.843817,-96.877859,,,0,,,0,,
9567345,,"23rd Ave S & Agassiz Xing (Corner NE)","",46.844104,-96.865832,,,0,,,0,,
9567346,,"23rd Ave S & Comfort Suites (Corner NE)","",46.844094,-96.859805,,,0,,,0,,
9567347,,"23rd Ave S & Red River Zoo (Parking Lot Entrance)","",46.84408,-96.85488,,,0,,,0,,
9567349,,"23rd St S & 5th Ave S (Corner SE)","",46.869695,-96.817072,,,0,,,0,,
9567350,,"23rd St S & 8th Ave S (T Interesection East)","",46.866727,-96.817109,,,0,,,0,,
9567351,,"23rd St S & Somali Business Center (Midblock East)","",46.874395,-96.816509,,,0,,,0,,
9567352,,"24th Ave & 19 1/2 St S (Corner NE)","",46.85139757308783,-96.75059732027246,,,0,,,0,,
9567353,,"24th Ave S & 11th St S (Corner NE)","",46.85139502923218,-96.76271465889548,,,0,,,0,,
9567354,,"24th Ave S & 14th St S (Corner NE)","",46.85139773215627,-96.75733270552254,,,0,,,0,,
9567355,,"24th Ave S & 33rd St S (Corner NE)","",46.853446,-96.726379,,,0,,,0,,
9567356,,"24th Ave S & 33rd St S (T Intersection South Side)","",46.853144,-96.726532,,,0,,,0,,
9567357,,"24th Ave S & 38th Street S (Corner NE)","",46.85503,-96.717565,,,0,,,0,,
9567358,,"24th Ave S & 7th St S (Corner NE)","",46.851407,-96.769277,,,0,,,0,,
9567359,,"24th Ave S & 8th St Frontage (Corner NE)","",46.851415,-96.767685,,,0,,,0,,
9567360,,"24th Ave S & Near Main (East of entrance to Byte Speed on South side)","",46.851663,-96.729713,,,0,,,0,,
9567361,,"24th St S & 2nd Ave S (Corner NW)","",46.874109,-96.818164,,,0,,,0,,
9567362,,"25th Ave N & 2nd St N (Corner NE)","",46.909896,-96.780444,,,0,,,0,,
9567363,,"25th Ave N & 3rd St N (Corner NE)","",46.909906,-96.782659,,,0,,,0,,
9567364,,"25th Ave S & 15th St S (Corner NE)","",46.843469,-96.803522,,,0,,,0,,
9567365,,"25th Ave S & 15th St S (Corner SW)","",46.84336,-96.803918,,,0,,,0,,
9567366,,"25th Ave S & 17th St S (Corner NE)","",46.843434,-96.808302,,,0,,,0,,
9567367,,"25th Ave S & 18th St S (Corner NE)","",46.842845,-96.811285,,,0,,,0,,
9567369,,"25th Ave S & Viking Cir (Corner SW)","",46.84336,-96.80676,,,0,,,0,,
9567370,,"25th St N & 10th Ave N (Corner NW)","",46.887,-96.8198,,,0,,,0,,
9567371,,"25th St N & 5th Ave N (Corner SE)","",46.881412,-96.81947,,,0,,,0,,
9567372,,"25th St S & 12th Ave S (Midblock East)","",46.86344,-96.819435,,,0,,,0,,
9567373,,"25th St S & 12th Ave S (Midblock West)","",46.864013296772185,-96.81966509937094,,,0,,,0,,
9567374,,"25th St S & 17th Ave S (Corner NW)","",46.85443281198597,-96.8198027374344,,,0,,,0,,
9567375,,"25th St S & 20th Ave S (Corner NW)","",46.851269,-96.819866,,,0,,,0,,
9567376,,"25th St S & 20th Ave S (Corner SE)","",46.850972,-96.819522,,,0,,,0,,
9567377,,"25th St S & 23rd Ave S (Corner SE)","",46.844128,-96.819679,,,0,,,0,,
9567379,,"25th St S & 25th Ave S (Corner NW)","",46.84272527056663,-96.81991744907376,,,0,,,0,,
9567380,,"25th St S & 25th St Market (Midblock East)","",46.860033,-96.819468,,,0,,,0,,
9567381,,"25th St S & 26th Ave S (Corner NW)","",46.8409780267166,-96.8199321312828,,,0,,,0,,
9567382,,"25th St S & 26th Ave S (Corner SE)","",46.840728,-96.819743,,,0,,,0,,
9567383,,"25th St S & 2nd Ave S (Corner SE)","",46.873884,-96.819343,,,0,,,0,,
9567384,,"25th St S & 30th Ave S (Corner NW)","",46.83589105097981,-96.8200365803566,,,0,,,0,,
9567385,,"25th St S & 30th Ave S (Corner SE)","",46.835631,-96.819829,,,0,,,0,,
9567386,,"25th St S & 3rd Ave S (Corner SE)","",46.87284,-96.819299,,,0,,,0,,
9567387,,"25th St S & 5th Ave S (Corner NW)","",46.869946,-96.819621,,,0,,,0,,
9567388,,"25th St S & 5th Ave S (Corner SE)","",46.869607,-96.819385,,,0,,,0,,
9567389,,"25th St S & 6th Ave S (Corner SE)","",46.868618,-96.819379,,,0,,,0,,
9567390,,"25th St S & 8th Ave S (Corner SE)","",46.866596,-96.819408,,,0,,,0,,
9567391,,"25th St S & Flickertail Dr N (Corner SE)","",46.857494,-96.819483,,,0,,,0,,
9567392,,"25th St S & Flickertail Dr S (Corner SE)","",46.855147,-96.819518,,,0,,,0,,
9567393,,"26th Ave E & 6th St E (Corner NE)","",46.841078,-96.889542,,,0,,,0,,
9567394,,"26th Ave S & Holiday Station (East Driveway)","",46.850351,-96.720934,,,0,,,0,,
9567396,,"27th Ave S & 15th St S (Corner SW)","",46.839049,-96.80193,,,0,,,0,,
9567398,,"27th Ave S & Arrowhead Rd S (Corner NE)","",46.838936,-96.80488,,,0,,,0,,
9567399,,"27th Ave S & Arrowhead Rd S (T Intersection South)","",46.838812,-96.804891,,,0,,,0,,
9567400,,"27th Ave S & Pacific Dr S (Corner NE)","",46.838561,-96.80788,,,0,,,0,,
9567401,,"27th Ave S & Pacific Dr S (Corner SW)","",46.838468,-96.80909,,,0,,,0,,
9567402,,"27th Ave S & University Dr S (Corner SW)","",46.839072,-96.799025,,,0,,,0,,
9567403,,"28th Ave N & 12th St N (Corner NE)","",46.912068,-96.796062,,,0,,,0,,
9567404,,"28th St S & 32nd Ave S (Midblock East)","",46.83222,-96.825627,,,0,,,0,,
9567405,,"28th St S & 9th Ave S (Corner NW)","",46.866136,-96.824853,,,0,,,0,,
9567406,,"28th St SW & Fiechtner Dr (Corner NW)","",46.869142,-96.825365,,,0,,,0,,
9567407,,"28th St SW & Fiechtner Dr. (Corner N)","",46.869264,-96.825198,,,0,,,0,,
9567408,,"29th St N & 10th Ave N (Corner SE)","",46.886766,-96.82543,,,0,,,0,,
9567409,,"29th St N & 11th Ave N (Corner SE)","",46.888596,-96.825506,,,0,,,0,,
9567410,,"29th St N & 8th Ave N (Corner SE)","",46.884666,-96.825364,,,0,,,0,,
9567411,,"2nd Ave N & 10th St N (Corner SW)","",46.878378,-96.794349,,,0,,,0,,
9567413,,"2nd Ave N & 8th St N (Corner SW)","",46.878378,-96.792721,,,0,,,0,,
9567414,,"2nd Ave N & Broadway N (Corner NE)","",46.878048,-96.787446,,,0,,,0,,
9567415,,"2nd Ave N & Broadway N (Corner SW)","",46.877977,-96.78791,,,0,,,0,,
9567416,,"2nd Ave N & NDSU Klai Hall (Main Entrance)","",46.878363,-96.79165,,,0,,,0,,
9567417,,"2nd Ave N & NDSU R H Barry Hall (Main Entrance)","",46.878475,-96.793209,,,0,,,0,,
9567420,,"2nd Ave N & Roberts St (Corner SW)","",46.878008,-96.789772,,,0,,,0,,
9567421,,"2nd Ave S & 11th St S (Corner NE)","",46.872757,-96.762583,,,0,,,0,,
9567422,,"2nd Ave S & 12th St S (Corner NE)","",46.872778,-96.761046,,,0,,,0,,
9567423,,"2nd Ave S & 14th/13th Ave S (Midblock North)","",46.872764,-96.757774,,,0,,,0,,
9567424,,"2nd St NE & 2nd Ave NE (Corner SE)","",46.87839743946171,-96.70037293254089,,,0,,,0,,
9567425,,"2nd St NE & 4th Ave NE (Corner SE)","",46.88016792076291,-96.70034469940568,,,0,,,0,,
9567426,,"2nd St S & Fargo High Rise (Crosswalk South)","",46.872139,-96.783294,,,0,,,0,,
9567427,,"30th Ave S & 12th St S (Corner SW)","",46.8440049725556,-96.76167970188712,,,0,,,0,,
9567428,,"30th Ave S & 13th St S (Corner SW)","",46.844014649412024,-96.7595325803566,,,0,,,0,,
9567429,,"30th Ave S & 14th St S Far side (Corner SE)","",46.84401475608668,-96.75705762086676,,,0,,,0,,
9567430,,"30th Ave S & 17th St S (Corner SW)","",46.84403124235707,-96.751764682209,,,0,,,0,,
9567431,,"30th Ave S & 18th St S (Corner SW)","",46.84403302588904,-96.75021669940568,,,0,,,0,,
9567432,,"30th Ave S & 9th St S (Corner SW)","",46.84399675763925,-96.76627025644876,,,0,,,0,,
9567434,,"30th St N & 4th Ave N (Corner SE)","",46.879127,-96.733013,,,0,,,0,,
9567435,,"30th St N & Runnings","",46.877906,-96.73299,,,0,,,0,,
9567436,,"31st Ave E & 6th St E (Corner SW)","",46.835853,-96.889253,,,0,,,0,,
9567437,,"31st Ave E & Bluestem Dr (Corner SW)","",46.836615,-96.885431,,,0,,,0,,
9567438,,"31st Ave E & Foxtail Dr E (Corner SW)","",46.835057,-96.892919,,,0,,,0,,
9567439,,"32nd Ave E & 2nd/4th St E (Midblock South)","",46.833214,-96.895391,,,0,,,0,,
9567440,,"32nd Ave E & 4th/2nd St E (Midblock North)","",46.833458,-96.896715,,,0,,,0,,
9567441,,"32nd Ave E & 6th/4th St E (Midblock North)","",46.833359,-96.890801,,,0,,,0,,
9567442,,"32nd Ave N & 8th St N (T Intersection North)","",46.919329,-96.789757,,,0,,,0,,
9567443,,"32nd Ave S & 11th St S (Corner NE)","",46.84198924339257,-96.76290500248146,,,0,,,0,,
9567451,,"32nd Ave S & 27th St S (Corner NE)","",46.832636,-96.823045,,,0,,,0,,
9567452,,"32nd Ave S & 27th St S (Corner SW)","",46.832469,-96.823449,,,0,,,0,,
9567453,,"32nd Ave S & 32nd St S (Corner SW)","",46.832492,-96.830784,,,0,,,0,,
9567454,,"32nd Ave S & 33rd St SW (Midblock North)","",46.832709,-96.832238,,,0,,,0,,
9567455,,"32nd Ave S & 39th St S (Corner NE)","",46.832785,-96.845411,,,0,,,0,,
9567456,,"32nd Ave S & 39th St S (Corner SW)","",46.832525,-96.846153,,,0,,,0,,
9567457,,"32nd Ave S & 5th St S (Corner SW)","",46.84217627029709,-96.77191383680534,,,0,,,0,,
9567458,,"32nd Ave W & 6th St W (Corner SW)","",46.833461,-96.910703,,,0,,,0,,
9567459,,"32nd Ave W & West Fargo Sports Arena (Midblock North)","",46.833615,-96.908518,,,0,,,0,,
9567460,,"32nd St S & 15th Ave S (Corner NW)","",46.857103,-96.830277,,,0,,,0,,
9567461,,"32nd St S & 16th Ave S (Corner NW)","",46.855778,-96.83028,,,0,,,0,,
9567462,,"32nd St S & Westgate Dr S (Corner NE - Far Side Stop)","",46.857937,-96.830134,,,0,,,0,,
9567463,,"32nd St SW & Westgate Dr S(T intersection NW)","",46.857811,-96.830263,,,0,,,0,,
9567464,,"33rd Ave E & West Fargo Cash Wise","",46.831006,-96.884632,,,0,,,0,,
9567465,,"33rd Ave W & West Lake Apartments (Midblock North)","",46.832258,-96.913396,,,0,,,0,,
9567466,,"33rd St S & 30th Ave S (Corner SE)","",46.836846,-96.832934,,,0,,,0,,
9567467,,"34th St N & 8th Ave N (Corner SE)","",46.883467,-96.725587,,,0,,,0,,
9567468,,"34th St N & EasTen Mall - (MidblockWest)","",46.878042,-96.72566,,,0,,,0,,
9567469,,"34th St S & 11th Ave S (Midblock East)","",46.86293563573445,-96.72515117790986,,,0,,,0,,
9567470,,"34th St S & 15th Ave S (Corner SE)","",46.856859,-96.836083,,,0,,,0,,
9567471,,"34th St S & 16th Ave S (Corner SE)","",46.855508,-96.836109,,,0,,,0,,
9567472,,"34th St S & 17th Ave S (Corner NW)","",46.854425,-96.83624,,,0,,,0,,
9567473,,"34th St S & 4th Ave S (Corner SE)","",46.871161,-96.835074,,,0,,,0,,
9567474,,"34th St S & 8th Ave S (Corner NE)","",46.866055,-96.726312,,,0,,,0,,
9567475,,"34th St S & Cass County Jail (Corner SE)","",46.870064,-96.835434,,,0,,,0,,
9567476,,"34th St S & Near 12th Ave S (Casey's General Store)","",46.862932,-96.72518,,,0,,,0,,
9567477,,"34th St S & Ridgewood Blvd (Corner NE)","",46.858419,-96.725285,,,0,,,0,,
9567478,,"34th St S & Vista Center (Midblock N of Right-turn lane)","",46.85122,-96.722913,,,0,,,0,,
9567479,,"34th Street N & 3rd Avenue NW (Corner SE)","",46.879334,-96.725383,,,0,,,0,,
9567480,,"34th Street NW & 3rd Avenue NW (West side T Intersection)","",46.879275,-96.72567,,,0,,,0,,
9567481,,"36th St S & 24th Ave S (Midblock S of 24th Ave)","",46.853643,-96.721274,,,0,,,0,,
9567482,,"36th St S & North of Roundabout","",46.851554,-96.720172,,,0,,,0,,
9567483,,"37th Ave S & 11th St S (Corner NE)","",46.83633175905495,-96.76209382209016,,,0,,,0,,
9567484,,"37th Ave S & 13th St S (Corner NE)","",46.836354384837875,-96.7593782245369,,,0,,,0,,
9567485,,"37th Ave S & 5th St S (Corner NE)","",46.83685929261424,-96.771811708004,,,0,,,0,,
9567486,,"37th Ave S & Rivershore Dr (Corner NE)","",46.83696223649461,-96.77306876934624,,,0,,,0,,
9567487,,"37th Ave S & West of 8th Street (West of Driveway by Super 8)","",46.83680729256906,-96.76927196578023,,,0,,,0,,
9567488,,"38th St S & 9th Ave S (Corner SE)","",46.866153,-96.843361,,,0,,,0,,
9567489,,"38th St S & Savers (Driveway West)","",46.856521,-96.841874,,,0,,,0,,
9567490,,"3rd Ave N & 15th St N (Centre Inc.)","",46.879476,-96.803773,,,0,,,0,,
9567491,,"3rd Ave N & 15th St N (Corner NE)","",46.879544,-96.803503,,,0,,,0,,
9567492,,"3rd Ave N & 16th St N (Corner NE)","",46.879555,-96.806297,,,0,,,0,,
9567493,,"3rd Ave N & 20th St N (Corner NE)","",46.879533,-96.812002,,,0,,,0,,
9567494,,"3rd Ave N & 23rd St N (Corner NE)","",46.879532,-96.815978,,,0,,,0,,
9567495,,"3rd Ave N & 25th St N (Corner NE)","",46.87954,-96.819269,,,0,,,0,,
9567496,,"3rd Ave N & 9th St N (Corner NW)","",46.87831,-96.766116,,,0,,,0,,
9567497,,"3rd Ave N & University Dr N (Corner NE)","",46.879513,-96.797873,,,0,,,0,,
9567498,,"3rd Ave N & University Dr N (Corner SW)","",46.879425,-96.798418,,,0,,,0,,
9567499,,"3rd Ave NW & 34th St N - Far Side (South)","",46.87940152365765,-96.72497857175829,,,0,,,0,,
9567500,,"3rd Ave NW & 9th St NW (Corner SW)","",46.879403490546935,-96.71523624173356,,,0,,,0,,
9567501,,"3rd Ave NW & Midblock by 9th Ave NW (South)","",46.879409900615926,-96.71867912516592,,,0,,,0,,
9567502,,"3rd St E & 3rd Ave E (Corner NE) West Fargo Library","",46.873763,-96.895915,,,0,,,0,,
9567503,,"40th Ave S & 43rd St S (Corner SW)","",46.818281,-96.85645,,,0,,,0,,
9567504,,"40th Ave S & 43rd/44th St S (Midblock North)","",46.8183752340303,-96.85707100000002,,,0,,,0,,
9567505,,"40th Ave S & 47th St S (Corner SE)","",46.818272,-96.866593,,,0,,,0,,
9567506,,"40th Ave S & Village Ln S (Corner NE)","",46.818524,-96.863977,,,0,,,0,,
9567507,,"40th St S & Dakota View Estates (Corner NW)","",46.853563,-96.847113,,,0,,,0,,
9567508,,"42nd St S & 11th Ave S (Corner SE)","",46.864245,-96.850841,,,0,,,0,,
9567509,,"42nd St S & 17th Ave S (Corner SE)","",46.85488,-96.850887,,,0,,,0,,
9567510,,"42nd St S & 17th Ave S (Midblock West)","",46.854603,-96.851172,,,0,,,0,,
9567511,,"42nd St S & 18th Ave S (Corner SE)","",46.851526,-96.850954,,,0,,,0,,
9567512,,"42nd St S & 19th Ave S (Midblock West)","",46.849925,-96.851334,,,0,,,0,,
9567513,,"42nd St S & 23rd Ave S (Midblock East)","",46.843941,-96.851101,,,0,,,0,,
9567514,,"42nd St S & 23rd Ave S (Midblock W)","",46.843522,-96.851409,,,0,,,0,,
9567515,,"42nd St S & 24th Ave S (Midblock West)","",46.842676,-96.851374,,,0,,,0,,
9567516,,"42nd St S & 28th Ave S (Corner NW)","",46.838446,-96.851415,,,0,,,0,,
9567517,,"42nd St S & 28th Ave S (Corner SE)","",46.838179,-96.851142,,,0,,,0,,
9567518,,"42nd St S & 30th Ave S (Corner SE)","",46.836422,-96.851149,,,0,,,0,,
9567519,,"42nd St S & 31st Ave S (Corner NW)","",46.834989,-96.851453,,,0,,,0,,
9567520,,"42nd St S & 32nd Ave S/31st Ave S (Midblock East)","",46.833079,-96.851263,,,0,,,0,,
9567521,,"42nd St S & 33rd Ave S (Corner NW)","",46.829991,-96.851608,,,0,,,0,,
9567522,,"42nd St S & 33rd Ave S (Midblock East)","",46.829847,-96.85133,,,0,,,0,,
9567523,,"42nd St S & 34th Ave S (Corner SE)","",46.828229,-96.85126,,,0,,,0,,
9567524,,"42nd St S & 36th Ave S (Corner NW)","",46.824561,-96.851343,,,0,,,0,,
9567525,,"42nd St S & 36th Ave SW (Corner SE)","",46.824318,-96.851091,,,0,,,0,,
9567526,,"42nd St S & 37th Ave S (Corner NW)","",46.82261075643451,-96.85124832390784,,,0,,,0,,
9567527,,"42nd St S & 40th Ave S (Corner NW)","",46.818396,-96.851061,,,0,,,0,,
9567528,,"42nd St S & 49th Ave S (Corner NW)","",46.807818,-96.851062,,,0,,,0,,
9567529,,"42nd St S & 49th Ave S (Corner SE)","",46.807618,-96.850664,,,0,,,0,,
9567530,,"42nd St S & Hornbacher's (Midblock East)","",46.862805,-96.850806,,,0,,,0,,
9567531,,"42nd St S & Microsoft (Corner SE)","",46.812171,-96.850302,,,0,,,0,,
9567532,,"42nd St S & Swanson Health Products (Midblock East)","",46.820761,-96.850924,,,0,,,0,,
9567533,,"44th Ave S & 43rd St S (Corner NE)","",46.815955,-96.856028,,,0,,,0,,
9567534,,"44th Ave S & 46th/45th St S (Midblock South)","",46.81462724133722,-96.86259846627044,,,0,,,0,,
9567535,,"44th Ave S & 47th St S (Corner NE)","",46.814584,-96.866556,,,0,,,0,,
9567536,,"44th Ave S & Osgood Strip (Midblock North)","",46.814713,-96.862628,,,0,,,0,,
9567537,,"44th Ave S & Woodhaven Dr S (Corner SW)","",46.81492428158598,-96.85850472883604,,,0,,,0,,
9567538,,"44th Ave S & Woodhaven St S (Corner NE)","",46.815189,-96.851464,,,0,,,0,,
9567539,,"44th Ave S & Woodhaven St S (Corner SW)","",46.8151102813256,-96.85181661838531,,,0,,,0,,
9567540,,"45th St S & 18th Ave S (Corner SE)","",46.852652,-96.861778,,,0,,,0,,
9567541,,"47th St S Townhomes (Corner SE)","",46.816196,-96.866618,,,0,,,0,,
9567542,,"47th St. S & 44th Ave S (Corner NW)","",46.81465834300118,-96.8667906736107,,,0,,,0,,
9567543,,"47th St. S & Town Site Place (Corner NW)","",46.816953,-96.866766,,,0,,,0,,
9567544,,"4th Ave E & 2nd St E (Corner NE)","",46.872766,-96.897667,,,0,,,0,,
9567546,,"4th Ave E & 4th St E (Corner NE)","",46.872704,-96.893353,,,0,,,0,,
9567547,,"4th Ave E & 6th St E (Corner NE)","",46.872667,-96.889842,,,0,,,0,,
9567548,,"4th Ave E & West Fargo City Hall (Corner NE)","",46.872609,-96.885223,,,0,,,0,,
9567549,,"4th Ave N & 26th St N (Corner NE)","",46.879306,-96.739275,,,0,,,0,,
9567550,,"4th Ave N & 28th St N (Corner NE)","",46.879299,-96.736131,,,0,,,0,,
9567551,,"4th Ave N & 5th St N (Corner SW)","",46.880059,-96.786297,,,0,,,0,,
9567552,,"4th Ave N & Broadway N (Corner NE)","",46.880121,-96.787533,,,0,,,0,,
9567553,,"4th Ave NE & 12th St NE (Corner SW)","",46.88065567137887,-96.68708527116392,,,0,,,0,,
9567554,,"4th Ave NE & 14th St NE (Corner SW)","",46.88066111695335,-96.6834512736454,,,0,,,0,,
9567555,,"4th Ave NE & 4th St NE (Corner SW)","",46.88033211307923,-96.69787157423973,,,0,,,0,,
9567556,,"4th Ave NE & 7th St NE - Far Side (Corner SE)","",46.880345151508315,-96.69352064418028,,,0,,,0,,
9567557,,"4th Ave NE & Woodbridge Circle (Corner SW)","",46.880640300423664,-96.68991034110452,,,0,,,0,,
9567558,,"4th Ave S & (Midblock between 34th St & Clearview Ct N)","",46.8694945075437,-96.72908782820704,,,0,,,0,,
9567559,,"4th Ave S & 22nd St S (Corner NW)","",46.871411,-96.745674,,,0,,,0,,
9567560,,"4th Ave S & Clearview Ct (Corner NE)","",46.87131632257335,-96.73477774966814,,,0,,,0,,
9567561,,"4th Ave S & Eagle Dr (Corner NE)","",46.87088291540665,-96.7321289852848,,,0,,,0,,
9567562,,"4th Ave S & Oakway (Shelter 125 North T)","",46.87134583962985,-96.74255797668648,,,0,,,0,,
9567563,,"4th Ave S & Rensvold (North of Intersection)","",46.87133835665319,-96.74010460615156,,,0,,,0,,
9567564,,"4th St S & 11th Ave S (Corner NW)","",46.863518,-96.785873,,,0,,,0,,
9567565,,"4th St S & 11th Ave S (Corner SE)","",46.863316,-96.785762,,,0,,,0,,
9567566,,"4th St S & 12th Ave S (T Intersection East)","",46.861835,-96.785656,,,0,,,0,,
9567567,,"4th St S & 7th Ave S (Corner NW)","",46.867701,-96.785803,,,0,,,0,,
9567568,,"4th St S & 7th Ave S (Corner SE)","",46.867484,-96.785715,,,0,,,0,,
9567569,,"4th St S & 9th Ave S (Corner SE)","",46.865371,-96.785744,,,0,,,0,,
9567570,,"4th St S & Community theater & Mid-block","",46.8708,-96.785612,,,0,,,0,,
9567571,,"51st Ave S & 38th St. S (Corner SW)","",46.80590038139834,-96.8462233263893,,,0,,,0,,
9567572,,"51st Ave S & 50th Ave S (Corner SW)","",46.805365,-96.849249,,,0,,,0,,
9567573,,"51st St S & 30th Ave S (Corner NW)","",46.836635,-96.874061,,,0,,,0,,
9567574,,"51st St S & 32nd Ave S (Corner NW)","",46.833247,-96.874181,,,0,,,0,,
9567575,,"51st St S & Amber Valley Pkwy S (Corner NW)","",46.842165,-96.873284,,,0,,,0,,
9567576,,"52nd Ave S & 38th St SW (Corner NW)","",46.804195191259154,-96.84617989814758,,,0,,,0,,
9567577,,"55th St S & Costco (Corner SW)","",46.843758,-96.884916,,,0,,,0,,
9567578,,"5th Ave N & 20th St N (Corner NE)","",46.880347,-96.747918,,,0,,,0,,
9567579,,"5th Ave N & West of Hwy 75 (Midblock by driveway)","",46.88035,-96.745516,,,0,,,0,,
9567580,,"5th Ave S & 11th St S (Corner SW)","",46.869591,-96.796503,,,0,,,0,,
9567581,,"5th Ave S & 14th St S (Corner SW)","",46.869717,-96.801338,,,0,,,0,,
9567582,,"5th Ave S & 15th St S (Corner SW)","",46.869739,-96.804207,,,0,,,0,,
9567583,,"5th Ave S & 16th St S (Corner SW)","",46.869764,-96.807099,,,0,,,0,,
9567584,,"5th Ave S & 18th St S (Corner SW)","",46.869763,-96.810479,,,0,,,0,,
9567585,,"5th Ave S & 21st St S (Corner SW)","",46.869737,-96.814238,,,0,,,0,,
9567586,,"5th St & 2nd Ave N (Corner SE)","",46.877964,-96.786159,,,0,,,0,,
9567587,,"5th St N & 1st Ave N (Corner NW)","",46.877064,-96.786243,,,0,,,0,,
9567588,,"5th St N & 2nd Ave N (Corner NW)","",46.877969,-96.786294,,,0,,,0,,
9567589,,"5th St N & 2nd Ave N (Corner SE)","",46.877811,-96.786103,,,0,,,0,,
9567590,,"5th St N & 3rd Ave N (Corner NW)","",46.87915,-96.78625,,,0,,,0,,
9567591,,"5th St N & 4th Ave N (Corner SE)","",46.880012,-96.786116,,,0,,,0,,
9567592,,"5th St S & 12th Ave S (Corner SE)","",46.861988,-96.772438,,,0,,,0,,
9567593,,"5th St S & 13th Ave S (Corner SE)","",46.861466,-96.787755,,,0,,,0,,
9567594,,"5th St S & 14th Ave S (Corner NW)","",46.859757,-96.787949,,,0,,,0,,
9567595,,"5th St S & 14th Ave S (Corner SE)","",46.860026,-96.772454,,,0,,,0,,
9567596,,"5th St S & 15th Ave S (Corner NW)","",46.857731,-96.787982,,,0,,,0,,
9567597,,"5th St S & 16th Ave S (Corner SE )","",46.856093,-96.787897,,,0,,,0,,
9567598,,"5th St S & 16th Ave S (Corner SE)","",46.858392,-96.77248,,,0,,,0,,
9567599,,"5th St S & 17th Ave S (Corner NW)","",46.85445,-96.788012,,,0,,,0,,
9567600,,"5th St S & 18th Ave S (Corner SE)","",46.8565,-96.772473,,,0,,,0,,
9567601,,"5th St S & 20th Ave S (Corner SE)","",46.854839,-96.772367,,,0,,,0,,
9567602,,"5th St S & 22nd Ave S (Corner SE)","",46.853045,-96.772258,,,0,,,0,,
9567603,,"5th St S & 4th Ave S (Corner SE)","",46.870539,-96.772372,,,0,,,0,,
9567604,,"5th St S & 7th Ave S (Corner SE)","",46.867103,-96.772406,,,0,,,0,,
9567605,,"5th St S & Oakland Ave S (Corner SE)","",46.858725,-96.787853,,,0,,,0,,
9567606,,"6th St S & 2nd Ave S (Corner NW)","",46.872896,-96.770989,,,0,,,0,,
9567607,,"6th St W & 33rd Ave W (Corner NW)","",46.832658,-96.910549,,,0,,,0,,
9567608,,"7th Ave E & 12th St E (Corner NE)","",46.869328,-96.877292,,,0,,,0,,
9567609,,"7th Ave E & 19th St E (Corner NE)","",46.869201,-96.869467,,,0,,,0,,
9567610,,"7th Ave E & 21st St E (Corner NE)","",46.869171,-96.867,,,0,,,0,,
9567611,,"7th Ave E & 23rd St E/45th St S (Midblock North)","",46.869097,-96.862906,,,0,,,0,,
9567612,,"7th Ave E & West Fargo High School (Corner NE)","",46.86942,-96.882695,,,0,,,0,,
9567613,,"7th Ave N & 17th St N (NE Corner)","",46.882437,-96.752483,,,0,,,0,,
9567614,,"7th Ave N & 20th/19th St N (Midblock North)","",46.882432,-96.748526,,,0,,,0,,
9567615,,"7th ave N & 21st St N (Corner SW)","",46.883173,-96.813897,,,0,,,0,,
9567616,,"7th Ave N & 26th St N (Corner NE)","",46.883261,-96.820838,,,0,,,0,,
9567617,,"7th Ave N & 28th St N (Corner NE)","",46.883266,-96.82375,,,0,,,0,,
9567618,,"7th Ave N & 29th St N (Corner NE)","",46.883285,-96.825222,,,0,,,0,,
9567619,,"7th Ave W & 7th St W (Corner NE)","",46.869256,-96.911254,,,0,,,0,,
9567620,,"7th Ave W & Morrison St (Corner NW)","",46.86976,-96.905883,,,0,,,0,,
9567621,,"7th Ave W & West Fargo High Rise (Corner NE)","",46.869711,-96.903788,,,0,,,0,,
9567622,,"7th St SE & Center Ave - Far Side (Corner SW)","",46.87623508648415,-96.69376993005945,,,0,,,0,,
9567623,,"8th Ave N & 25th St N (Corner (NW)","",46.88526,-96.819736,,,0,,,0,,
9567624,,"8th St N & 1st Ave N (Corner NW)","",46.876275,-96.76793,,,0,,,0,,
9567626,,"8th St S & 14th Ave S (Corner NW)","",46.860253,-96.768188,,,0,,,0,,
9567627,,"8th St S & 16th Ave S (Corner NW)","",46.858632,-96.7682,,,0,,,0,,
9567628,,"8th St S & 3rd Ave S (Corner NW)","",46.871826,-96.767993,,,0,,,0,,
9567629,,"8th St S & 4th Ave S (Corner NW)","",46.870783,-96.768001,,,0,,,0,,
9567630,,"8th St S & 7th Ave S (Corner NW)","",46.867322,-96.768148,,,0,,,0,,
9567631,,"8th St S & 9th Ave S (South of driveway near Old Main Building)","",46.86505,-96.768174,,,0,,,0,,
9567632,,"8th St W & 11th Ave W (Corner NW)","",46.86477,-96.913676,,,0,,,0,,
9567633,,"8th St W & 12 1/2 Ave W (Corner NW)","",46.863289,-96.913733,,,0,,,0,,
9567634,,"8th St W & 9th Ave W (Corner NW)","",46.867541,-96.913594,,,0,,,0,,
9567635,,"8th St W & 9th St W (Midblock North)","",46.830435,-96.914407,,,0,,,0,,
9567636,,"9th Ave S & 14th St S (Corner NE)","",46.86579761450182,-96.80103869940568,,,0,,,0,,
9567637,,"9th Ave S & 17th St S (Corner NE)","",46.86580824069013,-96.8089257374344,,,0,,,0,,
9567638,,"9th Ave S & 19th St S (Corner NE)","",46.865782712653456,-96.81123096197128,,,0,,,0,,
9567639,,"9th Ave S & 21st St S (Corner NE)","",46.86578015192224,-96.81345540492822,,,0,,,0,,
9567640,,"9th Ave S & 23rd St S (Corner NE)","",46.86578627338894,-96.81698718650816,,,0,,,0,,
9567641,,"9th Ave S & 23rd St S (Corner SW)","",46.86574,-96.817308,,,0,,,0,,
9567642,,"9th Ave S & 25th St S (Corner NE)","",46.86581676870623,-96.819362,,,0,,,0,,
9567643,,"9th Ave S & 25th St S (Corner SW)","",46.865711,-96.819806,,,0,,,0,,
9567644,,"9th Ave S & 9th Ave Cir S (Corner NE)","",46.866817,-96.853998,,,0,,,0,,
9567645,,"9th Ave SW & 44th St S (Corner NE)","",46.86637,-96.858487,,,0,,,0,,
9567646,,"9th St S & 32nd Ave S (T intersection West)","",46.84178618758744,-96.76610892394255,,,0,,,0,,
9567647,,"9th St S & Belsly Blvd (Corner NW)","",46.84001500000002,-96.76609141104508,,,0,,,0,,
9567648,,"9th St W & 32nd Ave W (Corner SE)","",46.83341,-96.914933,,,0,,,0,,
9567649,,"Agassiz Xing & 23rd Ave S (Corner NW)","",46.844158,-96.870062,,,0,,,0,,
9567650,,"Agassiz Xing & Ronald McDonald House (Midblock North)","",46.845464,-96.867706,,,0,,,0,,
9567651,,"Albrecht Blvd & 14th/15th Ave N (Midblock East)","",46.896802,-96.802709,,,0,,,0,,
9567652,,"Albrecht Blvd & 17th Ave N (Corner SE)","",46.901026,-96.802692,,,0,,,0,,
9567653,,"Belsly Blvd & 10th St S (Corner SW)","",46.84003529537496,-96.76408914847946,,,0,,,0,,
9567654,,"Belsly Blvd & 12th St S (Corner SW)","",46.84134686433886,-96.76172523313522,,,0,,,0,,
9567655,,"Belsly Blvd & 14th St S","",46.84200964854057,-96.7573436932888,,,0,,,0,,
9567656,,"Belsly Blvd & 1601 Belsly Blvd (3rd Driveway)","",46.84202502696943,-96.75318506861304,,,0,,,0,,
9567657,,"Belsly Blvd & 18th St S (Corner NE)","",46.84202767552407,-96.74979929695893,,,0,,,0,,
9567658,,"Bison Center & 33rd St S (Midblock)","",46.858851,-96.832459,,,0,,,0,,
9567659,,"Bluestem Dr & 26th Ave E (Corner SE)","",46.840301,-96.885599,,,0,,,0,,
9567660,,"Bluestem Dr & Apartments (Midblock East)","",46.83857,-96.885604,,,0,,,0,,
9567661,,"Broadway N & 10th Ave N (Corner NW)","",46.886843,-96.787834,,,0,,,0,,
9567662,,"Broadway N & 10th Ave N (Corner SE)","",46.886694,-96.787731,,,0,,,0,,
9567663,,"Broadway N & 11th Ave N (Corner NW)","",46.88866,-96.787829,,,0,,,0,,
9567664,,"Broadway N & 12th Ave N (Corner SE)","",46.890286,-96.787644,,,0,,,0,,
9567665,,"Broadway N & 14th Ave N (Corner SE)","",46.895097,-96.787574,,,0,,,0,,
9567666,,"Broadway N & 15th Ave N (Corner NW)","",46.897715,-96.787648,,,0,,,0,,
9567667,,"Broadway N & 17th Ave N (Corner SE)","",46.901083,-96.787464,,,0,,,0,,
9567668,,"Broadway N & 19th Ave N (Corner SE)","",46.904661,-96.787344,,,0,,,0,,
9567669,,"Broadway N & 21st Ave N (Corner NW)","",46.906557,-96.78747,,,0,,,0,,
9567670,,"Broadway N & 21st Ave N (Corner SE)","",46.9063,-96.78739,,,0,,,0,,
9567671,,"Broadway N & 23rd Ave N (Midblock West)","",46.908228,-96.787468,,,0,,,0,,
9567672,,"Broadway N & 28th Ave N (Corner SE)","",46.912675,-96.787316,,,0,,,0,,
9567673,,"Broadway N & 30th Ave N (Corner SE)","",46.915415,-96.787293,,,0,,,0,,
9567674,,"Broadway N & 32nd Ave N (Corner SE)","",46.91919,-96.787265,,,0,,,0,,
9567675,,"Broadway N & 4th Ave N (Corner NW)","",46.880179,-96.787763,,,0,,,0,,
9567676,,"Broadway N & 6th Ave N (Corner SE)","",46.882096,-96.787686,,,0,,,0,,
9567677,,"Broadway N & Forest Ave N (Corner SE)","",46.914383,-96.787305,,,0,,,0,,
9567678,,"Career Academy (Parking Lot)","",46.849617,-96.73308,,,0,,,0,,
9567679,,"Cash Wise Driveway & 33rd St S (Midblock)","",46.85956,-96.832585,,,0,,,0,,
9567680,,"Elm St N & Woodcrest Dr N (Corner SE)","",46.908085,-96.776803,,,0,,,0,,
9567681,,"Essentia Bus Stop Sign (South)","",46.831991,-96.827769,,,0,,,0,,
9567682,,"Fiechtner Dr S & Page Dr (T Intersection NW)","",46.866957,-96.828399,,,0,,,0,,
9567683,,"Fiechtner Dr S & Westrac Dr S (Corner NW)","",46.864817,-96.831637,,,0,,,0,,
9567684,,"GTC","",46.875381,-96.785972,,,0,,,0,,
9567685,,"Holiday Dr & Entrance to Noodles & Co (Corner SE)","",46.848962,-96.766876,,,0,,,0,,
9567686,,"Horizon Middle School (Driveway)","",46.860061,-96.715122,,,0,,,0,,
9567687,,"Hornbachers (Corner NE)","",46.833123049643184,-96.76553213376428,,,0,,,0,,
9567688,,"Houge Estates","",46.87708690772882,-96.69450251289749,,,0,,,0,,
9567689,,"Hwy 10 Frontage Rd & 24th St N (T intersection South)","",46.875582,-96.74165,,,0,,,0,,
9567690,,"Hwy 10 Frontage Rd & 26th St N (After First Driveway)","",46.875685,-96.739645,,,0,,,0,,
9567691,,"Hwy 10 Frontage Rd & 28th St N","",46.875366,-96.736528,,,0,,,0,,
9567692,,"Hwy 10 Frontage Rd & 30/32nd St N (Midblock by Travelodge Driveway)","",46.875546,-96.732214,,,0,,,0,,
9567693,,"Hwy 10 Frontage Rd & 30th St N (Corner SW)","",46.875489,-96.733415,,,0,,,0,,
9567694,,"Hwy 10 Frontage Rd & 32nd St N (Corner SW)","",46.875438,-96.730134,,,0,,,0,,
9567695,,"Hwy 10 Frontage Rd & 34th St (Corner SW)","",46.87586041215895,-96.72593776686476,,,0,,,0,,
9567696,,"Hwy 10 Frontage Rd & 34th St S (Corner SW)","",46.875867,-96.725927,,,0,,,0,,
9567697,,"Hwy 10 Frontage Rd & 9th St SW (Corner NE)","",46.87630980928669,-96.71472320122338,,,0,,,0,,
9567698,,"Hwy 10 Frontage Rd & CVS Pharmacy (Midblock North)","",46.87623455284962,-96.72370223561668,,,0,,,0,,
9567699,,"Hwy 10 Frontage Rd & Dakota Boys Ranch (Midblock North)","",46.876251,-96.721764708004,,,0,,,0,,
9567700,,"Hwy 10 Frontage Rd & Villa Di Sole (Midblock North)","",46.87633358814646,-96.7123914565182,,,0,,,0,,
9567701,,"M State Parking Lot (Door N-2)","",46.84958863918853,-96.75037512135695,,,0,,,0,,
9567702,,"Main Ave & 4th St S (Corner NE)","",46.873898,-96.773766,,,0,,,0,,
9567703,,"Main Ave & 4th St S (Corner SW)","",46.873742,-96.774111,,,0,,,0,,
9567704,,"Main Ave & 5th St S (Corner NE)","",46.873896,-96.772244,,,0,,,0,,
9567705,,"Main Ave & 6th St S (Corner SW)","",46.873723,-96.771091,,,0,,,0,,
9567706,,"Main Ave & 9th St S (Corner SW)","",46.873716,-96.766465,,,0,,,0,,
9567707,,"Main Ave & 9th St S (T intersection by Walgreens)","",46.873875,-96.766118,,,0,,,0,,
9567708,,"Marriott Shelter (#118)","",46.848226,-96.762891,,,0,,,0,,
9567709,,"MHD CashWise","",46.87783772407684,-96.72846151670646,,,0,,,0,,
9567710,,"MHD Menards","",46.849067,-96.728675,,,0,,,0,,
9567711,,"MHD Sanford Health","",46.849973,-96.718011,,,0,,,0,,
9567712,,"NDSU Minard Hall (Pullout East)","",46.892128,-96.802474,,,0,,,0,,
9567713,,"NDSU Renaissance Hall (Pullout)","",46.875896,-96.790469,,,0,,,0,,
9567714,,"NP Ave N & 11th St N/10th St N (Midblock South)","",46.875941,-96.794938,,,0,,,0,,
9567715,,"NP Ave N & 12th St N (Midblock South)","",46.875967,-96.797058,,,0,,,0,,
9567716,,"NP Ave N & 2nd St N (Corner SW)","",46.875823,-96.781802,,,0,,,0,,
9567717,,"NP Ave N & 8th St N (People Ready)","",46.875894,-96.793208,,,0,,,0,,
9567718,,"NP Ave N & Broadway N (Corner SW)","",46.875904,-96.787928,,,0,,,0,,
9567719,,"Rivershore Dr & 34th Ave S (Corner SE)","",46.84021029920993,-96.77258845155528,,,0,,,0,,
9567720,,"Rivershore/Horn & 32nd Ave S (Corner SE)","",46.84211472958577,-96.7733422883606,,,0,,,0,,
9567721,,"Sanford Medical Center","",46.844832,-96.875307,,,0,,,0,,
9567723,,"Shelter 101 (Moorhead Center Mall)","",46.875101,-96.772951,,,0,,,0,,
9567724,,"Shelter 102 (US Bank)","",46.875015,-96.773229,,,0,,,0,,
9567725,,"Shelter 103 (River View Heights)","",46.87718,-96.76758,,,0,,,0,,
9567726,,"Shelter 104 (Clay County Courthouse)","",46.884387,-96.762671,,,0,,,0,,
9567727,,"Shelter 105 (Churches United)","",46.875959,-96.748026,,,0,,,0,,
9567728,,"Shelter 106 (North Side of Road)","",46.879299,-96.742296,,,0,,,0,,
9567729,,"Shelter 138 (34th St AXIS Clinicals)","",46.878571,-96.725382,,,0,,,0,,
9567730,,"Shelter 108 (WalMart)","",46.882816,-96.723744,,,0,,,0,,
9567731,,"Shelter 109 (Target)","",46.876208,-96.728157,,,0,,,0,,
9567732,,"Shelter 111 (M State)","",46.84779166957536,-96.74974799140168,,,0,,,0,,
9567733,,"Shelter 115 (Days Inn)","",46.84389564936028,-96.77176513376426,,,0,,,0,,
9567734,,"Shelter 117 (MidBlock)","",46.851448,-96.771289,,,0,,,0,,
9567735,,"Shelter 120 (Concordia)","",46.863196,-96.768233,,,0,,,0,,
9567736,,"Shelter 121 (Concordia)","",46.865039,-96.772439,,,0,,,0,,
9567737,,"Shelter 122 (Corner SE)","",46.872554,-96.772354,,,0,,,0,,
9567738,,"Shelter 123 (Hornbachers)","",46.872678,-96.763071,,,0,,,0,,
9567739,,"Shelter 124 (Midblock)","",46.860840298586986,-96.74790887731552,,,0,,,0,,
9567740,,"Shelter 127 (MSUM)","",46.866783,-96.762848,,,0,,,0,,
9567741,,"Shelter 128 (MSUM)","",46.866802,-96.757443,,,0,,,0,,
9567742,,"Shelter 201 (Wendys)","",46.861721,-96.82994,,,0,,,0,,
9567743,,"Shelter 202 (Bell State Bank)","",46.861459,-96.830378,,,0,,,0,,
9567744,,"Shelter 203 (CVS Pharmacy)","",46.86161385043766,-96.8191283558197,,,0,,,0,,
9567745,,"Shelter 204 (Market Square)","",46.861415,-96.817501,,,0,,,0,,
9567746,,"Shelter 205 (Centennial Blvd)","",46.894459,-96.798154,,,0,,,0,,
9567747,,"Shelter 206 (Essentia/Sanford - University - Westbound)","",46.854378,-96.797712,,,0,,,0,,
9567748,,"Shelter 207 (Essentia/Sanford - University - Easttbound)","",46.854305,-96.797336,,,0,,,0,,
9567749,,"Shelter 208 (Community Family Market)","",46.868581,-96.81709,,,0,,,0,,
9567750,,"Shelter 209 (VA Hospital)","",46.906265,-96.776827,,,0,,,0,,
9567751,,"Shelter 210 - N side of 25th Ave S","",46.843505,-96.801094,,,0,,,0,,
9567753,,"Shelter 211 (Agassiz School)","",46.867298,-96.798407,,,0,,,0,,
9567754,,"Shelter 212 (Island Park)","",46.869544,-96.785721,,,0,,,0,,
9567755,,"Shelter 213 (Vocational Training)","",46.865639,-96.785838,,,0,,,0,,
9567756,,"Shelter 214 (University Drive Manor)","",46.878374,-96.797183,,,0,,,0,,
9567757,,"Shelter 216 (Teamsters Arena)","",46.901369,-96.793494,,,0,,,0,,
9567758,,"Shelter 217 (SHAC)","",46.900867,-96.798102,,,0,,,0,,
9567759,,"Shelter 218 (Trollwood Village)","",46.917574,-96.787294,,,0,,,0,,
9567760,,"Shelter 219 (Fargo North High School)","",46.904343,-96.787506,,,0,,,0,,
9567761,,"Shelter 220 (NDSU Transit Hub)","",46.892569,-96.799251,,,0,,,0,,
9567762,,"Shelter 221 (Washington Elementary)","",46.901358,-96.787565,,,0,,,0,,
9567763,,"Shelter 222 (Broadway & 15th Ave N)","",46.897498,-96.787529,,,0,,,0,,
9567764,,"Shelter 223 (Sanford Health)","",46.884818,-96.787723,,,0,,,0,,
9567765,,"Shelter 224 (Saint Mary's Cathedral)","",46.882321,-96.787802,,,0,,,0,,
9567766,,"Shelter 225 (Bison Court)","",46.897083,-96.798129,,,0,,,0,,
9567767,,"Shelter 226 (Family Fare)","",46.883364,-96.79825,,,0,,,0,,
9567768,,"Shelter 227 (Essentia Hospital - North)","",46.83198,-96.827742,,,0,,,0,,
9567769,,"Shelter 228 (17th Ave S & E Gateway Cir)","",46.854193,-96.821714,,,0,,,0,,
9567770,,"Shelter 229 (North Port)","",46.910703,-96.787335,,,0,,,0,,
9567771,,"Shelter 231 (SEHS)","",46.86573,-96.822693,,,0,,,0,,
9567772,,"Shelter 232 (17th Ave S & 16th St S  Corner SW)","",46.854284,-96.806297,,,0,,,0,,
9567773,,"Shelter 233 (YWCA)","",46.834691,-96.798758,,,0,,,0,,
9567774,,"Shelter 235 (Skills & Technology)","",46.9062,-96.798068,,,0,,,0,,
9567776,,"Shelter 237 (Bethany Homes)","",46.871997144471734,-96.79835388343238,,,0,,,0,,
9567777,,"Shelter 238 (Sanford Hospital)","",46.853126,-96.7984,,,0,,,0,,
9567778,,"Shelter 239 (Apartments)","",46.834753,-96.832949,,,0,,,0,,
9567779,,"Shelter 240 (West Acres)","",46.858567,-96.844942,,,0,,,0,,
9567780,,"Shelter 241 (Cass County Courthouse)","",46.872073,-96.794404,,,0,,,0,,
9567781,,"Shelter 242 (Sanford Hospital)","",46.884821,-96.787817,,,0,,,0,,
9567782,,"Shelter 243 (Prairie St Johns Hospital)","",46.868507,-96.785664,,,0,,,0,,
9567783,,"Shelter 245 (Holiday C-Store)","",46.87745,-96.796899,,,0,,,0,,
9567784,,"Shelter 246 (Islamic Society of FM)","",46.867481,-96.824837,,,0,,,0,,
9567785,,"Shelter 247 (Centennial Blvd)","",46.893939,-96.802729,,,0,,,0,,
9567786,,"Shelter 251 (Albrecht Blvd)","",46.895337,-96.802721,,,0,,,0,,
9567787,,"Shelter 257 (Fargo Dome)","",46.904481,-96.798066,,,0,,,0,,
9567788,,"Shelter 259 (Target)","",46.86024256236126,-96.85366062086678,,,0,,,0,,
9567789,,"Shelter 260 (New Life Center)","",46.879435,-96.811619,,,0,,,0,,
9567790,,"Shelter 261 (Corner NW)","",46.839144,-96.801927,,,0,,,0,,
9567791,,"Shelter 262 (Apartments)","",46.834929,-96.83053,,,0,,,0,,
9567792,,"Shelter 263 (St. Anthony of Padua)","",46.866662,-96.794878,,,0,,,0,,
9567793,,"Shelter 264 (Whale of a Wash)","",46.890291,-96.829995,,,0,,,0,,
9567794,,"Shelter 265 (Walmart)","",46.802715,-96.843206,,,0,,,0,,
9567795,,"Shelter 266 (17th Ave S & 35th St S Corner SW)","",46.854278,-96.838261,,,0,,,0,,
9567796,,"Shelter 267 (Immanuel Lutheran Church)","",46.892896,-96.787736,,,0,,,0,,
9567797,,"Shelter 270 (Walmart)","",46.864003,-96.86431,,,0,,,0,,
9567798,,"Shelter 271 (Gate City Bank)","",46.909907,-96.787151,,,0,,,0,,
9567799,,"Shelter 274 (Hornbacher's)","",46.818289,-96.862678,,,0,,,0,,
9567800,,"Shelter 278 (Fargo High Rise)","",46.87221,-96.783733,,,0,,,0,,
9567801,,"Shelter 279 (MTG)","",46.883167,-96.816944,,,0,,,0,,
9567802,,"Shelter 280 (710 Lofts)","",46.883865,-96.79394,,,0,,,0,,
9567803,,"Shelter 281 (9th Ave N)","",46.886113,-96.793878,,,0,,,0,,
9567804,,"Shelter 282 (Roosevelt Park)","",46.8907,-96.793724,,,0,,,0,,
9567805,,"U 32 Apartment Complex","",46.919507,-96.795101,,,0,,,0,,
9567806,,"University Dr N & 10th Ave N (Corner NW)","",46.8869,-96.798214,,,0,,,0,,
9567807,,"University Dr N & 11th Ave N (Corner NW)","",46.888684,-96.798196,,,0,,,0,,
9567808,,"University Dr N & 16th Ave N (Corner NW)","",46.899541,-96.79811,,,0,,,0,,
9567809,,"University Dr N & 23rd Ave N (Corner NW)","",46.908541,-96.798024,,,0,,,0,,
9567810,,"University Dr N & 3rd Ave N (Corner NW)","",46.879576,-96.798282,,,0,,,0,,
9567811,,"University Dr N & 4th Ave N (Corner NW)","",46.880623,-96.798273,,,0,,,0,,
9567812,,"University Dr N & 9th Ave N (Corner NW)","",46.886005,-96.798222,,,0,,,0,,
9567813,,"University Dr S & 10th Ave S (Corner NW)","",46.86486125197702,-96.79846694477465,,,0,,,0,,
9567814,,"University Dr S & 13th Ave S (Corner NW)","",46.86172290788333,-96.79854727116394,,,0,,,0,,
9567815,,"University Dr S & 14th Ave S (Corner NW)","",46.859736,-96.798582,,,0,,,0,,
9567816,,"University Dr S & 14th Ave S (Corner SE)","",46.859499,-96.798351,,,0,,,0,,
9567819,,"University Dr S & 15th Ave S (Midblock East)","",46.857663,-96.798332,,,0,,,0,,
9567820,,"University Dr S & 16th Ave S (Corner NW)","",46.855804,-96.79864,,,0,,,0,,
9567822,,"University Dr S & 17th/18th Ave S (Midblock West)","",46.853005,-96.798664,,,0,,,0,,
9567823,,"University Dr S & 1st Ave S (Corner NW)","",46.87411,-96.798356,,,0,,,0,,
9567824,,"University Dr S & 25th Ave S (Corner NW)","",46.843794,-96.798892,,,0,,,0,,
9567825,,"University Dr S & 30th Ave S (Corner NW)","",46.834941,-96.799065,,,0,,,0,,
9567826,,"University Dr S & 6th Ave S (Corner NW)","",46.868925,-96.7984,,,0,,,0,,
9567827,,"University Dr S & Oak Manor Ave (Corner SE)","",46.845475,-96.798522,,,0,,,0,,
9567828,,"Veterans Blvd & 19th Ave E (Corner SE)","",46.851098,-96.882937,,,0,,,0,,
9567829,,"Westrac Dr & 34th St S (Corner SW)","",46.865946,-96.836753,,,0,,,0,,
9567830,,"Westrac Dr & 36th St S (Corner SW)","",46.865955,-96.840893,,,0,,,0,,
9567831,,"Westrac Dr. & 13th Ave S (Corner NW)","",46.861739,-96.830269,,,0,,,0,,
9583484,,"12th Ave N & Reineke Fine Arts Center (Midblock North)","",46.890437,-96.803957,,,0,,,0,,
9583485,,"Bolley Dr & 13th Ave N (T Intersection East)","",46.893016,-96.804098,,,0,,,0,,
9583486,,"Shelter 268 (Stevens Hall)","",46.894186,-96.804514,,,0,,,0,,
9583487,,"Shelter 248 (Wellness Center)","",46.894192,-96.807592,,,0,,,0,,
9583488,,"18th St N & NDSU LLC","",46.896376,-96.808841,,,0,,,0,,
9583489,,"Shelter 244 (Research Park)","",46.903666,-96.808758,,,0,,,0,,
9583490,,"NDSU Res Pk Dr & Candlewood Suites Driveway (T Intersection West)","",46.903617,-96.806727,,,0,,,0,,
9583491,,"Shelter 276 (Research Park)","",46.902892,-96.806676,,,0,,,0,,
9583492,,"NDSU Res Pk Dr & 17th Ave N (Corner NW).","",46.90134,-96.806687,,,0,,,0,,
9583493,,"NDSU Minard Hall (Pullout West)","",46.892181,-96.802671,,,0,,,0,,
9583494,,"Shelter 230 (Fargodome Transit Hub)","",46.901117,-96.803081,,,0,,,0,,
9583495,,"Albrecht Blvd & 17th Ave N (Midblock West)","",46.900907,-96.802793,,,0,,,0,,
9583496,,"Albrecht Blvd & 15th Ave N (Corner NW)","",46.897781,-96.802827,,,0,,,0,,
9583497,,"Shelter 249 (NDSU High Rises)","",46.896921,-96.802835,,,0,,,0,,
9583498,,"Albrecht Blvd & 14th Ave N (T Intersection West)","",46.895621,-96.802828,,,0,,,0,,
9583499,,"Albrecht Blvd & Centennial Blvd (Corner NW)","",46.894208,-96.802849,,,0,,,0,,
9587061,,"University Dr S & 15th Ave S (Corner NW)","",46.857855,-96.798614,,,0,,,0,,
9588801,,"32nd Ave S & 33rd St SW (Midblock North) 2","",46.832727,-96.83221,,,0,,,0,,
9590948,,"16th Ave N & 11th St N (Corner SW)","",46.899407,-96.795309,,,0,,,0,,
9590949,,"Shelter 252 (University Village)","",46.901194,-96.796262,,,0,,,0,,
9591978,,"4th Ave N & 12th St N (Corner SW)","",46.880506,-96.797197,,,0,,,0,,
9591979,,"4th Ave N & 7th St N (Corner SW)","",46.880258,-96.790508,,,0,,,0,,
9597010,,"16th St N & 19th Ave N (Corner SE)","",46.9046294588477,-96.80306758895492,,,0,,,0,,
9597011,,"NDSCS-Fargo (Main Entrance)","",46.905956,-96.799162,,,0,,,0,,
9597012,,"Shelter 256 (Niskanen)","",46.902941774989735,-96.7978494343586,,,0,,,0,,
9602966,,"2nd Ave N & Roberts St (Corner NE)","",46.878045,-96.789388,,,0,,,0,,
9602967,,"50th Ave S & 51st Ave S (Corner NE)","",46.805591,-96.848874,,,0,,,0,,
9669063,,"Vista Center Front Door (2777 34th St S)","",46.84893889145366,-96.7229750942304,,,0,,,0,,
9836370,,"NDSU Peltier Complex","",46.89327,-96.809573,,,0,,,0,,
